City_ID,City,Lat,Lng,Max Temp,Humidity,Cloudiness,Wind Speed,Country,Date
0,Albany,42.6,-73.97,73.0,54,28,2.51,US,2020-09-06 15:50:36
1,Walvis Bay,-22.96,14.51,64.4,59,0,12.75,NA,2020-09-06 15:56:19
2,Ikalamavony,-21.15,46.58,60.64,66,51,9.75,MG,2020-09-06 15:56:53
3,Monywa,22.12,95.13,85.14,73,97,7.85,MM,2020-09-06 15:56:53
4,Manacapuru,-3.3,-60.62,95.0,41,60,3.36,BR,2020-09-06 15:56:53
5,Qrendi,35.83,14.46,82.4,65,20,14.99,MT,2020-09-06 15:56:54
6,Cape Town,-33.93,18.42,68.0,49,2,10.29,ZA,2020-09-06 15:53:22
7,Hermanus,-34.42,19.23,63.0,67,16,5.01,ZA,2020-09-06 15:54:23
8,Pisco,-13.7,-76.22,63.0,82,90,6.93,PE,2020-09-06 15:55:51
9,Punta Arenas,-53.15,-70.92,42.8,81,75,13.87,CL,2020-09-06 15:49:37
10,Port Alfred,-33.59,26.89,62.76,82,88,12.48,ZA,2020-09-06 15:54:22
11,Waipawa,-41.41,175.52,51.8,81,98,23.04,NZ,2020-09-06 15:55:49
12,Victoria,22.29,114.16,84.0,79,95,8.01,HK,2020-09-06 15:54:10
13,Georgetown,5.41,100.34,82.4,83,40,2.24,MY,2020-09-06 15:55:31
14,Adrar,20.5,-10.07,97.79,28,73,10.65,MR,2020-09-06 15:56:55
15,Kasongo-Lunda,-6.47,16.82,90.48,36,59,4.12,CD,2020-09-06 15:56:56
16,New Norfolk,-42.78,147.06,50.0,55,100,1.01,AU,2020-09-06 15:56:25
17,Ancud,-41.87,-73.82,48.0,96,0,1.99,CL,2020-09-06 15:54:27
18,Castro,-24.79,-50.01,82.33,32,1,10.51,BR,2020-09-06 15:54:37
19,Jamestown,42.1,-79.24,66.99,77,1,5.82,US,2020-09-06 15:54:42
20,Bluff,-46.6,168.33,45.0,72,76,11.01,NZ,2020-09-06 15:54:28
21,Norman Wells,65.28,-126.83,42.8,100,75,8.05,CA,2020-09-06 15:56:13
22,Okhotsk,59.38,143.3,51.46,89,92,7.49,RU,2020-09-06 15:56:13
23,Rikitea,-23.12,-134.97,72.77,82,4,15.97,PF,2020-09-06 15:54:35
24,Busselton,-33.65,115.33,55.0,62,100,20.38,AU,2020-09-06 15:54:35
25,Bredasdorp,-34.53,20.04,62.6,55,36,13.87,ZA,2020-09-06 15:54:28
26,Hofn,64.25,-15.21,50.0,93,90,6.93,IS,2020-09-06 15:56:57
27,Rona De Sus,47.9,24.05,81.0,51,25,3.36,RO,2020-09-06 15:56:57
28,Chokurdakh,70.63,147.92,38.17,77,22,6.42,RU,2020-09-06 15:55:53
29,Hudiksvall,61.73,17.1,66.99,43,36,2.71,SE,2020-09-06 15:56:58
30,Barrow,71.29,-156.79,37.4,93,90,8.05,US,2020-09-06 15:56:11
31,Saint-Philippe,-21.36,55.77,69.8,83,22,5.82,RE,2020-09-06 15:55:27
32,Kieta,-6.22,155.63,79.11,75,5,0.49,PG,2020-09-06 15:56:56
33,Esperance,-33.87,121.9,59.0,82,90,12.75,AU,2020-09-06 15:56:26
34,Manakara,-22.13,48.02,65.68,80,2,7.07,MG,2020-09-06 15:56:58
35,Ercis,39.03,43.36,78.8,41,20,9.17,TR,2020-09-06 15:56:58
36,Vaini,-21.2,-175.2,69.8,73,75,10.29,TO,2020-09-06 15:55:24
37,Kathmandu,27.72,85.32,73.4,88,75,5.82,NP,2020-09-06 15:52:56
38,Dovolnoye,54.5,79.67,43.63,87,80,5.37,RU,2020-09-06 15:56:59
39,Mubende,0.56,31.39,66.16,94,100,1.19,UG,2020-09-06 15:56:59
40,Gat,31.61,34.76,87.01,60,0,12.53,IL,2020-09-06 15:56:59
41,Hithadhoo,-0.6,73.08,82.18,76,92,10.47,MV,2020-09-06 15:55:59
42,Ushuaia,-54.8,-68.3,42.8,75,40,19.46,AR,2020-09-06 15:54:35
43,Luderitz,-26.65,15.16,66.67,53,0,27.02,NA,2020-09-06 15:54:27
44,Gallup,35.53,-108.74,66.2,32,1,9.6,US,2020-09-06 15:57:00
45,Pacific Grove,36.62,-121.92,71.6,56,1,6.06,US,2020-09-06 15:52:18
46,Saskylakh,71.92,114.08,40.86,88,55,6.98,RU,2020-09-06 15:55:41
47,Carnarvon,-24.87,113.63,66.2,82,100,5.82,AU,2020-09-06 15:50:53
48,Butaritari,3.07,172.79,83.03,71,100,18.66,KI,2020-09-06 15:54:37
49,Voznesenye,61.01,35.48,59.32,94,100,7.43,RU,2020-09-06 15:57:01
50,Ust-Uda,54.17,103.03,46.44,71,0,2.93,RU,2020-09-06 15:57:01
51,Upernavik,72.79,-56.15,36.52,78,98,10.02,GL,2020-09-06 15:55:27
52,Les Cayes,18.2,-73.75,87.28,60,82,5.79,HT,2020-09-06 15:57:01
53,Qaanaaq,77.48,-69.36,29.82,83,14,2.62,GL,2020-09-06 15:55:29
54,Ossora,59.24,163.07,44.44,81,100,7.83,RU,2020-09-06 15:57:01
55,Yumen,40.28,97.2,67.41,25,3,15.19,CN,2020-09-06 15:57:02
56,Hilo,19.73,-155.09,73.4,73,90,2.08,US,2020-09-06 15:55:28
57,Linjiang,41.81,126.91,61.57,77,100,2.24,CN,2020-09-06 15:57:02
58,Mahajanga,-15.72,46.32,77.0,69,20,6.93,MG,2020-09-06 15:57:02
59,Metro,-5.11,105.31,75.92,87,98,4.68,ID,2020-09-06 15:57:02
60,Leningradskiy,69.38,178.42,35.33,86,6,7.05,RU,2020-09-06 15:56:32
61,Severo-Kurilsk,50.68,156.12,54.23,92,100,4.7,RU,2020-09-06 15:56:14
62,Calamar,10.25,-74.91,93.2,67,20,4.7,CO,2020-09-06 15:57:03
63,Urengoy,65.97,78.37,48.99,94,100,6.42,RU,2020-09-06 15:57:03
64,Mackenzie,55.3,-123.17,51.8,93,90,1.95,CA,2020-09-06 15:57:03
65,Faanui,-16.48,-151.75,77.56,77,69,8.21,PF,2020-09-06 15:57:03
66,Narsaq,60.92,-46.05,46.4,87,75,3.36,GL,2020-09-06 15:55:45
67,Sitka,57.05,-135.33,48.2,87,40,2.64,US,2020-09-06 15:57:04
68,Savelugu,9.62,-0.83,79.38,82,92,6.73,GH,2020-09-06 15:57:04
69,Torbay,47.67,-52.73,71.01,37,40,6.93,CA,2020-09-06 15:56:03
70,Vardo,70.37,31.11,55.4,76,48,11.41,NO,2020-09-06 15:56:29
71,Shahr-E Babak,30.12,55.12,73.27,18,2,14.25,IR,2020-09-06 15:57:04
72,Iqaluit,63.75,-68.51,48.2,57,75,10.29,CA,2020-09-06 15:57:05
73,Yellowknife,62.46,-114.35,43.0,75,75,6.93,CA,2020-09-06 15:54:36
74,Mataura,-46.19,168.86,45.0,72,87,11.01,NZ,2020-09-06 15:54:35
75,East London,-33.02,27.91,59.0,93,40,3.36,ZA,2020-09-06 15:54:34
76,Puerto Ayora,-0.74,-90.35,71.6,68,40,13.87,EC,2020-09-06 15:55:40
77,Khasan,42.43,130.64,64.31,81,98,3.27,RU,2020-09-06 15:57:05
78,Mar Del Plata,-38.0,-57.56,48.2,66,75,6.93,AR,2020-09-06 15:53:17
79,Tolaga Bay,-38.37,178.3,57.81,71,100,11.3,NZ,2020-09-06 15:57:06
80,Vao,-22.67,167.48,70.7,77,100,15.77,NC,2020-09-06 15:57:06
81,Fortuna,40.6,-124.16,62.6,72,75,11.41,US,2020-09-06 15:54:25
82,Bestobe,52.5,73.1,50.04,57,84,10.31,KZ,2020-09-06 15:57:07
83,Matara,5.95,80.54,76.78,81,100,18.19,LK,2020-09-06 15:57:00
84,Bengkulu,-3.8,102.27,77.07,88,90,5.39,ID,2020-09-06 15:55:47
85,Kamaishi,39.27,141.88,74.53,89,18,6.4,JP,2020-09-06 15:57:07
86,Ode,7.79,5.71,77.65,84,64,3.85,NG,2020-09-06 15:57:07
87,Mahebourg,-20.41,57.7,71.6,73,40,8.05,MU,2020-09-06 15:56:07
88,Ponta Do Sol,32.67,-17.1,77.0,69,20,6.93,PT,2020-09-06 15:55:46
89,Tarko-Sale,64.92,77.78,48.0,94,100,6.78,RU,2020-09-06 15:57:08
90,Khash,28.22,61.22,76.14,17,0,12.91,IR,2020-09-06 15:57:08
91,Ilulissat,69.22,-51.1,35.6,93,98,6.93,GL,2020-09-06 15:56:47
92,Kijang,35.24,129.21,71.6,78,90,29.97,KR,2020-09-06 15:57:08
93,Catuday,16.29,119.81,80.94,81,100,4.94,PH,2020-09-06 15:57:09
94,Turukhansk,65.82,87.98,45.0,87,100,5.82,RU,2020-09-06 15:55:59
95,Druzhba,52.04,33.95,69.03,51,14,3.89,UA,2020-09-06 15:57:09
96,Bambous Virieux,-20.34,57.76,73.0,73,40,8.05,MU,2020-09-06 15:55:59
97,Behshahr,36.69,53.55,77.86,61,0,0.94,IR,2020-09-06 15:57:09
98,Bosaso,11.28,49.18,88.0,61,35,3.96,SO,2020-09-06 15:57:10
99,Lorengau,-2.02,147.27,81.75,81,8,10.74,PG,2020-09-06 15:56:12
100,Loa Janan,-0.58,117.09,74.62,97,88,1.92,ID,2020-09-06 15:57:10
101,Biltine,14.53,20.92,79.68,68,76,6.08,TD,2020-09-06 15:57:10
102,Ahipara,-35.17,173.17,56.01,90,90,9.78,NZ,2020-09-06 15:57:10
103,Samarai,-10.62,150.67,78.12,88,99,15.97,PG,2020-09-06 15:57:11
104,Ballina,-28.87,153.57,62.6,72,40,6.93,AU,2020-09-06 15:57:11
105,Snasa,64.25,12.38,55.4,76,75,6.93,NO,2020-09-06 15:57:11
106,Axim,4.87,-2.24,78.31,74,42,11.05,GH,2020-09-06 15:55:44
107,Alta Floresta,-9.88,-56.09,107.29,11,9,4.25,BR,2020-09-06 15:55:45
108,Guerrero Negro,27.98,-114.06,87.17,46,0,5.12,MX,2020-09-06 15:55:28
109,Songjianghe,42.19,127.48,57.29,86,100,1.77,CN,2020-09-06 15:57:12
110,Tuktoyaktuk,69.45,-133.04,37.4,74,90,4.7,CA,2020-09-06 15:54:26
111,Eenhana,-17.47,16.33,95.0,11,0,6.93,NA,2020-09-06 15:57:12
112,Port Elizabeth,-33.92,25.57,61.0,80,74,5.99,ZA,2020-09-06 15:54:29
113,Tuy Hoa,13.08,109.3,80.67,82,61,5.41,VN,2020-09-06 15:57:12
114,Usinsk,65.99,57.53,54.81,92,80,12.33,RU,2020-09-06 15:57:12
115,Crateus,-5.18,-40.68,94.84,24,4,8.37,BR,2020-09-06 15:57:13
116,Wukari,7.85,9.78,81.19,81,88,5.32,NG,2020-09-06 15:57:13
117,Moose Factory,51.26,-80.61,55.4,71,1,11.41,CA,2020-09-06 15:57:13
118,Sumbe,-11.21,13.84,72.77,80,1,5.97,AO,2020-09-06 15:57:13
119,Langsa,4.47,97.97,75.61,90,86,1.39,ID,2020-09-06 15:57:13
120,Taoudenni,22.68,-3.98,105.42,12,36,7.16,ML,2020-09-06 15:56:09
121,Lumeje,-11.55,20.78,86.5,13,4,5.01,AO,2020-09-06 15:57:14
122,Aleksandrov Gay,50.15,48.57,70.2,24,85,8.61,RU,2020-09-06 15:57:14
123,Ndende,-2.4,11.36,83.73,54,50,4.88,GA,2020-09-06 15:57:14
124,Saint-Pierre,-21.34,55.48,69.8,83,45,5.82,RE,2020-09-06 15:57:14
125,Cabo San Lucas,22.89,-109.91,82.99,88,75,4.7,MX,2020-09-06 15:52:41
126,Dunedin,-45.87,170.5,48.0,73,8,5.01,NZ,2020-09-06 15:56:45
127,Marstal,54.86,10.52,62.6,63,40,9.17,DK,2020-09-06 15:57:15
128,Honningsvag,70.98,25.97,51.8,81,75,21.92,NO,2020-09-06 15:55:44
129,Kapaa,22.08,-159.32,78.8,74,75,13.87,US,2020-09-06 15:57:15
130,Mumford,5.26,-0.76,76.59,80,92,13.38,GH,2020-09-06 15:57:15
131,Thompson,55.74,-97.86,41.0,93,90,12.75,CA,2020-09-06 15:54:28
132,Nantucket,41.28,-70.1,71.6,78,1,12.75,US,2020-09-06 15:53:07
133,Avarua,-21.21,-159.78,69.8,64,61,6.93,CK,2020-09-06 15:54:28
134,Pangai,-19.8,-174.35,73.22,64,100,21.94,TO,2020-09-06 15:57:16
135,Diu,20.71,70.98,82.18,85,100,7.96,IN,2020-09-06 15:57:16
136,Ahuimanu,21.44,-157.84,78.8,69,75,12.75,US,2020-09-06 15:57:16
137,Erzin,36.96,36.2,84.0,80,0,3.0,TR,2020-09-06 15:57:17
138,Vanavara,60.34,102.28,44.47,82,38,2.08,RU,2020-09-06 15:57:17
139,Omsukchan,62.53,155.8,39.85,88,100,8.32,RU,2020-09-06 15:57:17
140,Kahului,20.89,-156.47,75.2,78,20,8.05,US,2020-09-06 15:55:48
141,The Valley,18.22,-63.06,84.2,70,40,13.87,AI,2020-09-06 15:54:21
142,Yate,51.54,-2.42,66.99,88,60,5.41,GB,2020-09-06 15:57:17
143,Buala,-8.14,159.59,80.19,81,35,6.42,SB,2020-09-06 15:57:18
144,Mitsamiouli,-11.38,43.28,76.15,71,4,5.55,KM,2020-09-06 15:55:59
145,Surt,31.21,16.59,81.43,67,0,18.01,LY,2020-09-06 15:57:18
146,Ribeira Grande,38.52,-28.7,73.4,53,40,19.46,PT,2020-09-06 15:55:49
147,Redlands,34.06,-117.18,96.01,26,5,0.27,US,2020-09-06 15:57:02
148,Tabas,33.6,56.92,93.2,14,0,4.7,IR,2020-09-06 15:57:18
149,Kasempa,-13.46,25.83,73.74,20,0,5.66,ZM,2020-09-06 15:57:19
150,Anantapur,14.68,77.6,86.34,59,12,10.0,IN,2020-09-06 15:57:19
151,Valleyview,55.07,-117.29,48.94,74,100,4.74,CA,2020-09-06 15:57:19
152,Pevek,69.7,170.31,38.73,77,0,16.51,RU,2020-09-06 15:55:35
153,Puerto Escondido,15.85,-97.07,78.8,78,90,3.31,MX,2020-09-06 15:57:20
154,Atuona,-9.8,-139.03,78.49,75,8,21.63,PF,2020-09-06 15:55:32
155,Ollioules,43.14,5.85,84.99,56,0,10.0,FR,2020-09-06 15:57:20
156,Tiksi,71.69,128.87,42.55,90,100,6.6,RU,2020-09-06 15:55:56
157,Coquimbo,-29.95,-71.34,57.2,76,70,11.41,CL,2020-09-06 15:57:20
158,Marienburg,54.04,19.03,62.01,100,20,7.36,PL,2020-09-06 15:57:20
159,Airai,-8.93,125.41,56.3,51,21,2.8,TL,2020-09-06 15:55:33
160,Margate,51.38,1.39,64.99,79,37,1.99,GB,2020-09-06 15:52:38
161,Marsa Matruh,31.35,27.25,82.4,58,0,11.41,EG,2020-09-06 15:57:21
162,Katangli,51.71,143.23,56.3,91,19,7.02,RU,2020-09-06 15:57:21
163,Lebu,-37.62,-73.65,53.62,69,0,11.68,CL,2020-09-06 15:57:21
164,Arraial Do Cabo,-22.97,-42.03,84.2,69,98,16.11,BR,2020-09-06 15:55:55
165,Aban,56.67,96.06,47.8,77,78,7.99,RU,2020-09-06 15:57:22
166,Cocachacra,-17.09,-71.76,65.25,60,44,7.76,PE,2020-09-06 15:57:22
167,Kodiak,57.79,-152.41,53.6,93,90,21.92,US,2020-09-06 15:52:24
168,Ust-Tsilma,65.44,52.15,59.04,78,69,5.14,RU,2020-09-06 15:57:22
169,Vilhena,-12.74,-60.15,91.4,26,2,9.17,BR,2020-09-06 15:55:17
170,Itarema,-2.92,-39.92,87.69,45,0,17.02,BR,2020-09-06 15:56:06
171,Jonkoping,57.78,14.16,57.2,71,98,14.99,SE,2020-09-06 15:57:22
172,Sukumo,32.93,132.73,78.82,87,98,27.54,JP,2020-09-06 15:57:23
173,Sur,22.57,59.53,84.49,64,0,13.13,OM,2020-09-06 15:56:11
174,Ndele,8.41,20.65,73.72,94,74,4.52,CF,2020-09-06 15:57:23
175,Omboue,-1.57,9.26,77.16,71,20,10.29,GA,2020-09-06 15:57:23
176,Tubajon,10.33,125.56,81.88,80,86,4.61,PH,2020-09-06 15:57:23
177,Sambava,-14.27,50.17,72.36,70,2,16.37,MG,2020-09-06 15:57:24
178,Russell,32.35,-85.2,82.0,57,1,3.36,US,2020-09-06 15:57:24
179,Oranjestad,12.52,-70.03,89.6,62,20,17.22,AW,2020-09-06 15:57:24
180,Dhidhdhoo,6.88,73.1,82.83,75,94,23.35,MV,2020-09-06 15:57:24
181,Palaia Fokaia,37.72,23.95,87.01,28,0,16.11,GR,2020-09-06 15:57:24
182,Morehead,37.27,-87.18,80.6,47,1,4.7,US,2020-09-06 15:57:25
183,Bethel,41.37,-73.41,75.0,56,40,6.58,US,2020-09-06 15:56:21
184,Vila Franca Do Campo,37.72,-25.43,71.6,64,75,18.34,PT,2020-09-06 15:56:27
185,Hobyo,5.35,48.53,76.77,77,65,25.17,SO,2020-09-06 15:56:43
186,San Quintin,30.48,-115.95,90.5,30,0,4.14,MX,2020-09-06 15:57:25
187,Uribia,11.71,-72.27,92.44,52,18,14.2,CO,2020-09-06 15:57:25
188,Zlatograd,41.38,25.1,81.0,48,0,3.0,BG,2020-09-06 15:57:26
189,Hobart,-42.88,147.33,50.0,76,100,5.82,AU,2020-09-06 15:50:27
190,Tasiilaq,65.61,-37.64,37.4,93,100,8.05,GL,2020-09-06 15:54:28
191,Longyearbyen,78.22,15.64,42.8,87,75,6.93,SJ,2020-09-06 15:56:35
192,Mvangue,2.97,11.52,72.57,92,63,5.21,CM,2020-09-06 15:57:26
193,Abu Zabad,12.35,29.25,86.79,53,84,7.61,SD,2020-09-06 15:57:26
194,Dikson,73.51,80.55,42.19,80,59,17.36,RU,2020-09-06 15:56:08
195,Pudozh,61.81,36.53,58.95,98,100,6.46,RU,2020-09-06 15:57:27
196,Kruisfontein,-34.0,24.73,61.0,80,25,5.01,ZA,2020-09-06 15:56:02
197,Smithers,54.78,-127.17,51.8,100,90,2.24,CA,2020-09-06 15:55:14
198,Atambua,-9.11,124.89,67.96,85,37,4.88,ID,2020-09-06 15:57:27
199,Saint George,37.1,-113.58,82.0,14,1,3.36,US,2020-09-06 15:52:45
200,Bonavista,48.65,-53.11,61.52,62,36,3.2,CA,2020-09-06 15:57:06
201,Mehamn,71.04,27.85,55.4,76,75,13.87,NO,2020-09-06 15:55:39
202,Qaqortoq,60.72,-46.03,46.4,87,75,3.36,GL,2020-09-06 15:57:28
203,Yerbogachen,61.28,108.01,52.59,94,100,7.43,RU,2020-09-06 15:57:28
204,Mayo,38.89,-76.51,81.0,54,1,4.7,US,2020-09-06 15:57:29
205,Namibe,-15.2,12.15,68.09,84,74,8.19,AO,2020-09-06 15:56:02
206,Sabang,5.89,95.32,82.87,76,99,18.25,ID,2020-09-06 15:56:31
207,Concordia,-31.39,-58.02,62.6,63,75,16.11,AR,2020-09-06 15:57:29
208,Vestmanna,62.16,-7.17,48.2,76,99,13.87,FO,2020-09-06 15:57:29
209,Clyde River,70.47,-68.59,41.0,56,40,24.16,CA,2020-09-06 15:55:28
210,Plouzane,48.38,-4.62,66.2,72,75,10.29,FR,2020-09-06 15:57:30
211,Luba,3.46,8.55,77.0,100,75,9.17,GQ,2020-09-06 15:57:30
212,Northam,51.03,-4.22,62.01,80,86,8.01,GB,2020-09-06 15:57:30
213,Alihe,50.57,123.72,52.05,91,0,2.62,CN,2020-09-06 15:57:30
214,Lagoa,39.05,-27.98,68.16,76,81,22.55,PT,2020-09-06 15:54:37
215,Labuhan,-6.88,112.21,79.34,77,89,5.86,ID,2020-09-06 15:57:31
216,Chapais,49.78,-74.85,53.6,76,90,8.05,CA,2020-09-06 15:56:13
217,Mandera,3.94,41.87,85.3,43,81,13.31,KE,2020-09-06 15:57:31
218,Huaicheng,23.91,112.19,77.68,89,77,1.1,CN,2020-09-06 15:57:31
219,Bathsheba,13.22,-59.52,87.8,66,40,13.87,BB,2020-09-06 15:56:03
220,Fort Nelson,58.81,-122.7,41.0,100,90,3.36,CA,2020-09-06 15:56:30
221,Beloha,-25.17,45.05,64.92,67,0,16.93,MG,2020-09-06 15:57:32
222,Makat,47.65,53.35,73.76,20,88,8.84,KZ,2020-09-06 15:57:32
223,Shiyan,32.65,110.78,72.37,61,0,2.19,CN,2020-09-06 15:56:02
224,Khatanga,71.97,102.5,40.46,75,0,4.72,RU,2020-09-06 15:55:51
225,Souillac,-20.52,57.52,71.6,73,40,8.05,MU,2020-09-06 15:55:35
226,Tuatapere,-46.13,167.68,45.0,72,23,11.01,NZ,2020-09-06 15:57:33
227,Teresina,-5.09,-42.8,93.2,28,1,5.82,BR,2020-09-06 15:57:33
228,General Roca,-39.03,-67.58,51.8,62,0,2.24,AR,2020-09-06 15:57:33
229,Asfi,32.3,-9.24,77.25,63,15,11.32,MA,2020-09-06 15:52:48
230,Bafia,4.75,11.23,75.61,88,100,5.12,CM,2020-09-06 15:57:33
231,Comodoro Rivadavia,-45.87,-67.5,59.0,47,10,8.05,AR,2020-09-06 15:57:34
232,San Carlos De Bariloche,-41.15,-71.31,46.4,49,0,3.33,AR,2020-09-06 15:57:34
233,Rawah,34.48,41.91,95.34,10,0,6.22,IQ,2020-09-06 15:57:34
234,Husavik,66.04,-17.34,53.6,76,75,19.46,IS,2020-09-06 15:56:01
235,Deputatskiy,69.3,139.9,40.46,93,100,3.78,RU,2020-09-06 15:56:03
236,Sao Joao Da Barra,-21.64,-41.05,86.0,37,0,11.41,BR,2020-09-06 15:56:28
237,Saint-Francois,46.42,3.91,68.0,42,81,12.75,FR,2020-09-06 15:57:35
238,Alcains,39.92,-7.46,97.0,19,0,3.0,PT,2020-09-06 15:57:35
239,Tual,-5.67,132.75,79.59,82,39,21.79,ID,2020-09-06 15:57:35
240,Praia Da Vitoria,38.73,-27.07,72.0,68,75,22.39,PT,2020-09-06 15:56:33
241,Mecca,21.43,39.83,94.44,41,2,3.38,SA,2020-09-06 15:57:36
242,Port Hedland,-20.32,118.57,69.8,94,12,5.82,AU,2020-09-06 15:57:36
243,Soyo,-6.13,12.37,77.0,83,75,8.05,AO,2020-09-06 15:56:55
244,Igarka,67.47,86.58,49.93,94,100,10.27,RU,2020-09-06 15:57:36
245,Nikolskoye,59.7,30.79,61.0,77,75,6.71,RU,2020-09-06 15:55:46
246,Vyshkov,52.48,31.69,75.2,57,100,4.47,RU,2020-09-06 15:57:37
247,Aksarka,66.56,67.8,46.47,61,0,2.77,RU,2020-09-06 15:57:37
248,Beyneu,45.32,55.2,68.54,34,100,20.15,KZ,2020-09-06 15:57:37
249,Colares,38.8,-9.45,91.4,35,0,8.05,PT,2020-09-06 15:57:37
250,Aklavik,68.22,-135.01,39.2,80,75,4.7,CA,2020-09-06 15:55:39
251,Celestun,20.87,-90.4,86.72,58,97,4.74,MX,2020-09-06 15:57:38
252,Axapusco,19.73,-98.75,62.6,72,90,6.93,MX,2020-09-06 15:57:38
253,Faro,37.02,-7.93,78.8,61,0,9.17,PT,2020-09-06 15:55:19
254,Baykit,61.67,96.37,44.06,77,3,1.88,RU,2020-09-06 15:56:15
255,Sao Filipe,14.9,-24.5,78.39,79,77,10.71,CV,2020-09-06 15:55:46
256,Ca Mau,9.18,105.15,79.7,85,90,3.62,VN,2020-09-06 15:57:38
257,Tselinnoye,53.08,85.67,49.26,69,99,6.62,RU,2020-09-06 15:57:39
258,Petropavlovsk-Kamchatskiy,53.05,158.65,51.8,100,75,2.24,RU,2020-09-06 15:57:39
259,Basco,20.45,121.97,83.25,68,58,5.75,PH,2020-09-06 15:57:39
260,Manga,11.66,-1.07,80.24,77,98,9.26,BF,2020-09-06 15:57:39
261,Ferrol,43.48,-8.24,72.0,56,0,12.75,ES,2020-09-06 15:57:39
262,Mangrol,21.12,70.12,83.1,84,100,9.46,IN,2020-09-06 15:57:40
263,Inirida,3.87,-67.92,90.52,56,24,1.83,CO,2020-09-06 15:57:40
264,Vanimo,-2.67,141.3,78.26,84,83,6.08,PG,2020-09-06 15:56:13
265,Zaozerne,45.16,33.28,77.52,64,51,12.55,UA,2020-09-06 15:57:40
266,La Ronge,55.1,-105.28,48.2,87,75,11.41,CA,2020-09-06 15:57:40
267,Shakhtinsk,49.71,72.59,46.4,61,40,4.47,KZ,2020-09-06 15:57:40
268,Bollnas,61.35,16.39,66.99,43,0,3.6,SE,2020-09-06 15:57:41
269,Rocha,-34.48,-54.33,56.48,62,0,10.98,UY,2020-09-06 15:56:26
270,Muzhi,65.37,64.67,48.38,79,36,1.52,RU,2020-09-06 15:57:41
271,Wrzesnia,52.33,17.57,66.99,50,100,5.01,PL,2020-09-06 15:57:41
272,Lamu,-2.27,40.9,75.76,77,0,13.4,KE,2020-09-06 15:57:42
273,Cap Malheureux,-19.98,57.61,73.0,71,37,5.99,MU,2020-09-06 15:56:01
274,Black River,18.03,-77.85,86.0,74,40,16.11,JM,2020-09-06 15:57:42
275,Bahia Honda,22.9,-83.16,86.09,63,1,7.47,CU,2020-09-06 15:57:42
276,Borogontsy,62.67,131.17,43.97,95,0,5.46,RU,2020-09-06 15:57:42
277,Verkhnevilyuysk,63.45,120.32,43.41,94,57,4.05,RU,2020-09-06 15:57:43
278,Cidreira,-30.18,-50.21,60.48,98,100,15.21,BR,2020-09-06 15:55:48
279,Rajanpur,29.1,70.33,96.48,25,0,8.46,PK,2020-09-06 15:57:43
280,Haftoni,38.76,48.76,78.8,74,0,13.87,AZ,2020-09-06 15:57:44
281,Ratne,51.67,24.53,63.46,89,100,4.23,UA,2020-09-06 15:57:44
282,Manaus,-3.1,-60.02,95.0,49,20,4.7,BR,2020-09-06 15:57:44
283,Along,28.17,94.77,73.96,90,99,1.07,IN,2020-09-06 15:57:45
284,Yangambi,0.81,24.43,77.38,77,72,1.95,CD,2020-09-06 15:57:45
285,Wlodawa,51.55,23.55,60.8,100,75,3.36,PL,2020-09-06 15:57:45
286,Honiara,-9.43,159.95,75.2,94,40,7.07,SB,2020-09-06 15:55:46
287,Kyren,51.68,102.14,47.3,72,1,2.33,RU,2020-09-06 15:57:46
288,Nishihara,26.18,127.76,80.6,100,75,13.87,JP,2020-09-06 15:57:46
289,Datong,40.09,113.29,63.07,61,81,1.45,CN,2020-09-06 15:57:01
290,Half Moon Bay,37.46,-122.43,78.01,82,1,3.36,US,2020-09-06 15:57:46
291,Kavieng,-2.57,150.8,82.83,77,5,12.55,PG,2020-09-06 15:55:41
292,Sibolga,1.74,98.78,77.25,80,49,3.98,ID,2020-09-06 15:57:47
293,Yulara,-25.24,130.99,73.4,20,0,4.7,AU,2020-09-06 15:56:36
294,Havre-Saint-Pierre,50.23,-63.6,57.2,76,75,12.75,CA,2020-09-06 15:57:47
295,Kajaani,64.23,27.73,59.0,72,100,8.05,FI,2020-09-06 15:57:47
296,Grand Gaube,-20.01,57.66,73.0,71,40,5.99,MU,2020-09-06 15:57:48
297,Antofagasta,-23.65,-70.4,59.0,67,75,9.17,CL,2020-09-06 15:57:48
298,Hasaki,35.73,140.83,75.2,100,75,4.7,JP,2020-09-06 15:55:37
299,Yeniseysk,58.45,92.17,43.86,92,54,4.36,RU,2020-09-06 15:57:48
300,Tilichiki,60.47,166.1,37.45,89,23,2.66,RU,2020-09-06 15:57:49
301,San Andres,12.58,-81.7,87.8,74,40,5.82,CO,2020-09-06 15:57:49
302,Saint-Joseph,-21.37,55.62,69.8,83,31,5.82,RE,2020-09-06 15:55:34
303,Barstow,34.9,-117.02,86.0,19,1,16.11,US,2020-09-06 15:57:49
304,Port-Gentil,-0.72,8.78,80.6,69,40,10.4,GA,2020-09-06 15:56:36
305,Port Blair,11.67,92.75,82.69,80,100,13.85,IN,2020-09-06 15:57:50
306,Kavaratti,10.57,72.64,81.91,78,100,28.74,IN,2020-09-06 15:55:47
307,Llanes,43.42,-4.75,69.01,80,81,1.99,ES,2020-09-06 15:57:50
308,Daru,-9.08,143.21,77.61,86,100,18.16,PG,2020-09-06 15:55:49
309,Susaki,33.37,133.28,81.27,82,100,31.07,JP,2020-09-06 15:57:50
310,Inca,39.72,2.91,82.4,58,8,13.87,ES,2020-09-06 15:57:51
311,Kota Belud,6.35,116.43,77.0,94,20,2.24,MY,2020-09-06 15:57:51
312,Marataizes,-21.04,-40.82,77.79,66,0,15.59,BR,2020-09-06 15:57:51
313,Tecate,32.57,-116.63,95.0,27,0,3.78,MX,2020-09-06 15:57:45
314,Moses Lake,47.13,-119.28,62.6,59,1,3.36,US,2020-09-06 15:56:46
315,Tiruvannamalai,12.22,79.07,79.97,84,5,1.66,IN,2020-09-06 15:57:51
316,Ladario,-19.0,-57.6,93.2,26,71,6.93,BR,2020-09-06 15:56:27
317,Constitucion,-35.33,-72.42,59.18,54,0,7.7,CL,2020-09-06 15:56:02
318,Kedrovyy,56.17,91.82,44.6,93,86,2.24,RU,2020-09-06 15:56:08
319,Kashan,33.98,51.44,81.34,15,0,4.34,IR,2020-09-06 15:57:52
320,Andenes,69.31,16.12,53.6,81,75,14.99,NO,2020-09-06 15:57:52
321,Treinta Y Tres,-33.23,-54.38,58.46,68,56,11.01,UY,2020-09-06 15:57:52
322,Karratha,-20.74,116.85,69.64,76,0,8.7,AU,2020-09-06 15:55:22
323,Luanda,-8.84,13.23,77.0,69,20,8.05,AO,2020-09-06 15:56:32
324,Kommunisticheskiy,61.68,64.48,45.75,72,0,4.65,RU,2020-09-06 15:57:53
325,Tanda,26.55,82.65,85.06,71,12,3.58,IN,2020-09-06 15:57:53
326,Hami,42.8,93.45,80.37,16,30,8.72,CN,2020-09-06 15:57:54
327,Provideniya,64.38,-173.3,40.32,82,100,8.88,RU,2020-09-06 15:55:34
328,Sao Gabriel Da Cachoeira,-0.13,-67.09,93.74,50,17,0.67,BR,2020-09-06 15:57:54
329,Egvekinot,66.32,-179.17,34.23,92,21,1.61,RU,2020-09-06 15:55:28
330,Kyra,49.58,111.98,50.36,86,40,4.79,RU,2020-09-06 15:57:54
331,Meiktila,20.87,95.87,80.53,81,85,10.38,MM,2020-09-06 15:57:54
332,Naifaru,5.44,73.37,82.29,77,82,17.02,MV,2020-09-06 15:53:19
333,Boa Vista,2.82,-60.67,91.4,52,40,1.12,BR,2020-09-06 15:57:55
334,Askarovo,53.34,58.51,51.8,66,34,8.95,RU,2020-09-06 15:57:55
335,Komsomolskiy,40.43,71.72,71.6,28,74,4.7,UZ,2020-09-06 15:57:55
336,Kaitangata,-46.28,169.85,44.01,77,36,3.0,NZ,2020-09-06 15:56:05
337,Steamboat Springs,40.48,-106.83,70.0,33,1,5.23,US,2020-09-06 15:56:32
338,Riverton,40.52,-111.94,81.0,24,1,9.17,US,2020-09-06 15:57:56
339,Cartagena,10.4,-75.51,93.2,67,20,4.7,CO,2020-09-06 15:55:00
340,Dudinka,69.41,86.18,46.4,70,0,8.95,RU,2020-09-06 15:57:56
341,Lompoc,34.64,-120.46,69.8,72,1,3.36,US,2020-09-06 15:52:41
342,Sisimiut,66.94,-53.67,41.76,68,77,15.52,GL,2020-09-06 15:57:56
343,Saint-Denis,48.92,2.33,66.2,42,53,9.17,FR,2020-09-06 15:56:48
344,Acapulco,16.86,-99.89,82.4,78,75,4.7,MX,2020-09-06 15:57:57
345,San Patricio,19.22,-104.7,86.0,79,40,6.93,MX,2020-09-06 15:56:11
346,Camopi,3.17,-52.32,90.99,53,20,4.61,GF,2020-09-06 15:57:57
347,Jambi,-1.6,103.62,76.96,82,98,0.85,ID,2020-09-06 15:57:57
348,Muisne,0.6,-80.03,78.8,83,75,10.29,EC,2020-09-06 15:57:57
349,Tocopilla,-22.09,-70.2,65.21,50,9,4.47,CL,2020-09-06 15:57:58
350,Calderitas,18.55,-88.25,84.2,79,40,5.7,MX,2020-09-06 15:57:58
351,Batemans Bay,-35.72,150.18,49.17,88,1,5.59,AU,2020-09-06 15:57:58
352,Nome,64.5,-165.41,37.99,86,1,4.7,US,2020-09-06 15:56:14
353,Necochea,-38.55,-58.74,46.99,72,59,8.99,AR,2020-09-06 15:56:15
354,Gigmoto,13.78,124.39,82.49,81,95,6.73,PH,2020-09-06 15:57:59
355,Nanortalik,60.14,-45.24,45.43,93,100,13.02,GL,2020-09-06 15:54:38
356,Bongandanga,1.5,21.05,78.73,74,100,2.33,CD,2020-09-06 15:57:59
357,Doctor Juan Manuel Frutos,-25.37,-55.8,81.81,49,65,2.71,PY,2020-09-06 15:57:59
358,Fomboni,-12.28,43.74,75.49,74,0,10.94,KM,2020-09-06 15:57:59
359,San Policarpo,12.18,125.51,81.3,85,58,5.41,PH,2020-09-06 15:58:00
360,Lata,40.16,-8.33,93.99,43,0,11.23,PT,2020-09-06 15:58:00
361,Cherskiy,68.75,161.3,41.16,67,92,13.31,RU,2020-09-06 15:55:37
362,Springdale,36.19,-94.13,81.0,88,1,6.93,US,2020-09-06 15:57:07
363,Mount Gambier,-37.83,140.77,55.4,58,5,11.41,AU,2020-09-06 15:55:49
364,Nyurba,63.28,118.33,48.76,82,100,3.06,RU,2020-09-06 15:55:48
365,El Alto,-4.27,-81.21,71.01,59,7,15.9,PE,2020-09-06 15:58:01
366,Laguna,38.42,-121.42,80.01,69,1,3.36,US,2020-09-06 15:58:01
367,Berlevag,70.86,29.09,55.4,71,50,17.22,NO,2020-09-06 15:57:07
368,Mineros,-17.12,-63.23,86.0,48,75,11.41,BO,2020-09-06 15:58:01
369,Oistins,13.07,-59.53,87.8,66,40,13.87,BB,2020-09-06 15:58:01
370,Yendi,9.44,-0.01,79.05,86,85,6.62,GH,2020-09-06 15:58:02
371,Ochamchira,42.71,41.47,73.24,84,31,4.43,GE,2020-09-06 15:58:02
372,Ajdabiya,30.76,20.23,80.82,59,0,21.12,LY,2020-09-06 15:57:52
373,Chuy,-33.7,-53.46,57.76,68,0,12.55,UY,2020-09-06 15:58:02
374,Berdigestyakh,62.1,126.7,43.93,90,37,6.51,RU,2020-09-06 15:55:38
375,Cockburn Town,21.46,-71.14,86.0,70,40,16.11,TC,2020-09-06 15:55:34
376,Vitim,59.45,112.56,58.84,86,80,7.18,RU,2020-09-06 15:58:03
377,Tonantins,-2.87,-67.8,98.24,39,9,2.06,BR,2020-09-06 15:58:03
378,Coahuayana,18.73,-103.68,75.2,83,75,1.7,MX,2020-09-06 15:58:03
379,Petatlan,17.52,-101.27,80.6,83,75,1.03,MX,2020-09-06 15:58:04
380,Seminole,28.71,-81.21,90.0,62,1,8.05,US,2020-09-06 15:58:04
381,Mwinilunga,-11.74,24.43,78.28,18,0,5.48,ZM,2020-09-06 15:58:04
382,Camana,-16.62,-72.71,64.58,65,44,9.8,PE,2020-09-06 15:58:04
383,Totness,5.88,-56.32,86.92,59,40,3.18,SR,2020-09-06 15:58:04
384,Mutsu,41.29,141.22,73.4,88,40,3.36,JP,2020-09-06 15:55:15
385,Havoysund,71.0,24.66,51.8,81,75,21.92,NO,2020-09-06 15:54:27
386,Doka,13.52,35.77,80.55,72,23,2.04,SD,2020-09-06 15:58:05
387,Veraval,20.9,70.37,83.08,84,100,8.88,IN,2020-09-06 15:57:20
388,Avera,33.19,-82.53,82.4,45,1,10.29,US,2020-09-06 15:58:05
389,Pangnirtung,66.15,-65.71,40.98,68,54,4.7,CA,2020-09-06 15:54:33
390,Jardim,-21.48,-56.14,98.78,16,45,7.45,BR,2020-09-06 15:58:06
391,Kudahuvadhoo,2.67,72.89,82.98,73,100,10.92,MV,2020-09-06 15:58:06
392,Alice Springs,-23.7,133.88,66.2,20,0,6.93,AU,2020-09-06 15:55:52
393,Hamilton,39.18,-84.53,78.01,60,40,3.58,US,2020-09-06 15:53:44
394,Carutapera,-1.2,-46.02,87.4,58,32,11.39,BR,2020-09-06 15:58:06
395,Arman,59.7,150.17,47.07,84,98,5.48,RU,2020-09-06 15:55:27
396,Flin Flon,54.77,-101.86,50.0,87,90,17.22,CA,2020-09-06 15:58:06
397,Sawtell,-30.38,153.1,55.99,93,40,3.27,AU,2020-09-06 15:58:07
398,Manadhoo,5.77,73.38,82.53,76,92,20.4,MV,2020-09-06 15:58:07
399,Fortaleza,-3.72,-38.52,87.8,45,15,17.22,BR,2020-09-06 15:58:07
400,Soe,-9.86,124.28,61.77,96,11,5.08,ID,2020-09-06 15:58:07
401,Poum,-20.23,164.02,72.73,76,100,16.67,NC,2020-09-06 15:56:01
402,Nador,35.17,-2.93,80.6,69,40,8.05,MA,2020-09-06 15:58:08
403,Kinshasa,-4.32,15.32,84.2,58,75,10.29,CD,2020-09-06 15:53:36
404,Karla,59.37,24.93,60.8,72,20,6.93,EE,2020-09-06 15:58:08
405,Xining,36.62,101.77,58.21,53,90,4.21,CN,2020-09-06 15:55:30
406,Sweetwater,25.76,-80.37,91.0,62,75,8.05,US,2020-09-06 15:58:08
407,Masalli,34.8,126.66,68.0,100,100,18.34,KR,2020-09-06 15:58:08
408,Trinidad,-14.83,-64.9,89.6,62,26,6.93,BO,2020-09-06 15:58:09
409,Touros,-5.2,-35.46,86.0,51,75,11.41,BR,2020-09-06 15:58:09
410,Noumea,-22.28,166.46,72.0,82,100,8.9,NC,2020-09-06 15:58:09
411,Nuuk,64.18,-51.72,46.4,93,93,6.93,GL,2020-09-06 15:58:09
412,Ostrovnoy,68.05,39.51,55.89,76,61,13.8,RU,2020-09-06 15:58:09
413,Aginskoye,51.1,114.53,54.27,82,78,3.4,RU,2020-09-06 15:58:10
414,Nago,26.59,127.98,78.8,88,20,18.34,JP,2020-09-06 15:58:10
415,Katsuura,35.13,140.3,78.8,94,75,3.36,JP,2020-09-06 15:55:53
416,Kondinskoye,59.65,67.41,48.67,69,100,10.09,RU,2020-09-06 15:57:05
417,Bhag,29.04,67.82,101.89,15,0,6.71,PK,2020-09-06 15:58:10
418,Sarkand,45.41,79.92,55.94,58,100,8.05,KZ,2020-09-06 15:58:10
419,Alakurtti,66.97,30.35,55.99,70,18,7.0,RU,2020-09-06 15:58:11
420,Whitehorse,60.72,-135.05,30.2,92,5,1.52,CA,2020-09-06 15:58:11
421,Sterling,39.01,-77.43,81.0,47,20,4.7,US,2020-09-06 15:54:14
422,Jalingo,8.88,11.37,82.02,77,75,5.93,NG,2020-09-06 15:58:11
423,Terney,45.05,136.61,65.46,75,53,4.21,RU,2020-09-06 15:58:11
424,Klaksvik,62.23,-6.59,48.2,76,99,13.87,FO,2020-09-06 15:58:12
425,Churapcha,62.0,132.43,44.15,92,15,6.76,RU,2020-09-06 15:58:12
426,Lazaro Cardenas,17.96,-102.2,83.34,72,91,3.06,MX,2020-09-06 15:58:12
427,Yambio,4.57,28.4,70.48,97,100,3.15,SS,2020-09-06 15:58:12
428,Santa Isabel Do Rio Negro,-0.41,-65.02,99.77,37,3,1.95,BR,2020-09-06 15:57:47
429,Nelson Bay,-32.72,152.15,55.0,93,0,8.3,AU,2020-09-06 15:55:38
430,Vanino,49.09,140.25,61.45,80,100,2.35,RU,2020-09-06 15:58:13
431,Isangel,-19.55,169.27,70.27,82,67,11.72,VU,2020-09-06 15:57:28
432,San Antonio,29.42,-98.49,81.0,83,1,4.7,US,2020-09-06 15:57:20
433,Hualmay,-11.1,-77.61,66.22,65,92,8.61,PE,2020-09-06 15:58:13
434,Malanje,-9.54,16.34,86.47,15,55,3.58,AO,2020-09-06 15:58:13
435,Hambantota,6.12,81.12,75.2,100,90,4.7,LK,2020-09-06 15:55:57
436,Penha,-26.77,-48.65,66.2,100,75,6.93,BR,2020-09-06 15:58:14
437,Saldanha,-33.01,17.94,66.2,52,12,9.17,ZA,2020-09-06 15:54:26
438,Kungurtug,50.6,97.52,47.64,76,0,3.02,RU,2020-09-06 15:58:14
439,Mascote,-15.56,-39.3,76.96,79,76,3.49,BR,2020-09-06 15:58:14
440,Sainte-Marie,-20.9,55.55,71.6,68,20,13.87,RE,2020-09-06 15:58:14
441,Chifeng,42.27,118.96,62.56,77,5,1.43,CN,2020-09-06 15:58:15
442,Santa Cruz,-17.8,-63.17,86.0,48,75,10.29,BO,2020-09-06 15:57:31
443,Wattegama,6.8,81.48,75.2,100,90,4.7,LK,2020-09-06 15:56:32
444,Bubaque,11.28,-15.83,79.97,82,27,20.96,GW,2020-09-06 15:58:15
445,Ornskoldsvik,63.29,18.72,62.6,48,74,8.05,SE,2020-09-06 15:58:15
446,Praia,14.92,-23.51,82.4,69,75,18.34,CV,2020-09-06 15:58:16
447,Alexandria,31.22,29.96,84.2,62,40,12.75,EG,2020-09-06 15:58:16
448,Brigantine,39.41,-74.36,81.0,47,1,4.7,US,2020-09-06 15:54:31
449,Severnyy,50.68,36.55,77.0,27,97,4.47,RU,2020-09-06 15:58:16
450,Cicevac,43.72,21.44,87.8,22,0,1.12,RS,2020-09-06 15:58:16
451,Aksu,41.12,80.26,72.37,40,89,9.8,CN,2020-09-06 15:58:17
452,Jurado,7.11,-77.76,81.72,82,86,6.2,CO,2020-09-06 15:58:17
453,Richards Bay,-28.78,32.04,67.46,66,86,10.92,ZA,2020-09-06 15:58:17
454,San Jose Del Potrero,14.83,-87.28,77.54,74,71,2.8,HN,2020-09-06 15:58:17
455,Riyadh,24.69,46.72,100.4,12,0,5.82,SA,2020-09-06 15:54:44
456,Ishurdi,24.13,89.08,82.54,85,71,11.21,BD,2020-09-06 15:58:18
457,Dicabisagan,17.08,122.42,79.68,82,100,1.12,PH,2020-09-06 15:58:18
458,Yueyang,29.33,113.09,67.59,76,30,5.1,CN,2020-09-06 15:58:18
459,Nampa,43.54,-116.56,69.01,63,1,7.45,US,2020-09-06 15:58:18
460,Nalut,30.33,10.85,99.09,13,46,12.24,LY,2020-09-06 15:58:24
461,Chernyshevskiy,63.01,112.47,46.51,75,99,7.09,RU,2020-09-06 15:58:24
462,Salcininkai,54.3,25.38,66.0,59,75,6.93,LT,2020-09-06 15:58:24
463,Robe,-37.18,139.75,60.57,51,0,20.24,AU,2020-09-06 15:58:24
464,Kutoarjo,-7.72,109.91,75.6,82,100,3.47,ID,2020-09-06 15:58:25
465,Vyborg,60.71,28.75,59.0,82,75,6.93,RU,2020-09-06 15:58:25
466,Dali,25.7,100.18,64.04,87,100,4.12,CN,2020-09-06 15:58:25
467,Yafran,32.06,12.53,77.04,52,82,16.89,LY,2020-09-06 15:58:26
468,Mbeya,-8.9,33.45,61.29,61,53,7.29,TZ,2020-09-06 15:58:26
469,Asau,46.43,26.4,71.01,69,0,1.41,RO,2020-09-06 15:58:26
470,Grindavik,63.84,-22.43,51.8,100,90,21.92,IS,2020-09-06 15:56:44
471,Nalgonda,17.05,79.27,81.41,79,10,6.35,IN,2020-09-06 15:57:28
472,Carahue,-38.7,-73.17,44.6,100,75,3.36,CL,2020-09-06 15:58:26
473,Erenhot,43.65,111.98,69.51,48,69,10.65,CN,2020-09-06 15:58:27
474,Atlantic City,39.36,-74.42,81.0,47,1,4.7,US,2020-09-06 15:54:53
475,Bilma,18.69,12.92,103.98,10,10,6.15,NE,2020-09-06 15:58:27
476,Nushki,29.55,66.02,76.33,16,0,1.48,PK,2020-09-06 15:58:27
477,Teya,60.38,92.63,41.97,87,69,3.2,RU,2020-09-06 15:56:09
478,Dingle,11.0,122.67,78.04,89,86,3.02,PH,2020-09-06 15:56:25
479,Okha,53.57,142.95,56.39,94,37,4.65,RU,2020-09-06 15:58:28
480,Kasongo,-4.45,26.67,86.05,34,80,3.74,CD,2020-09-06 15:58:28
481,Kinlochleven,56.71,-4.97,61.0,62,20,6.93,GB,2020-09-06 15:58:28
482,Chekhov,55.14,37.47,73.4,49,83,4.47,RU,2020-09-06 15:58:28
483,Tenenkou,14.46,-4.92,92.71,41,38,1.88,ML,2020-09-06 15:58:29
484,Mae Sot,16.72,98.57,75.36,92,100,2.55,TH,2020-09-06 15:58:29
485,Monduli,-3.3,36.45,66.2,72,75,5.82,TZ,2020-09-06 15:58:29
486,Eyl,7.98,49.82,77.49,73,46,26.4,SO,2020-09-06 15:58:29
487,Mtambile,-5.38,39.7,75.79,77,1,12.97,TZ,2020-09-06 15:58:29
488,Macae,-22.37,-41.79,84.2,62,74,10.29,BR,2020-09-06 15:58:30
489,Paita,-5.09,-81.11,67.68,66,0,13.38,PE,2020-09-06 15:58:30
490,Trani,41.27,16.42,80.6,54,0,11.41,IT,2020-09-06 15:58:30
491,Mekhe,15.11,-16.62,80.6,88,75,12.68,SN,2020-09-06 15:58:30
492,Fukue,32.69,128.84,78.66,87,100,69.59,JP,2020-09-06 15:58:31
493,Codrington,-38.27,141.97,56.37,64,35,16.24,AU,2020-09-06 15:58:31
494,Tigil,57.8,158.67,46.62,93,100,10.27,RU,2020-09-06 15:58:31
495,Moerai,-22.43,-151.33,71.91,88,99,16.44,PF,2020-09-06 15:58:31
496,Pitimbu,-7.47,-34.81,82.4,61,40,16.11,BR,2020-09-06 15:58:31
497,Lubango,-14.92,13.49,78.4,28,43,4.16,AO,2020-09-06 15:58:32
498,Tshikapa,-6.42,20.8,90.32,25,8,1.45,CD,2020-09-06 15:58:32
499,Keflavik,64.0,-22.56,53.6,100,90,21.92,IS,2020-09-06 15:58:32
500,Yatsushiro,32.5,130.6,81.57,73,100,39.73,JP,2020-09-06 15:58:33
501,Dzhebariki-Khaya,62.22,135.8,51.24,95,100,5.7,RU,2020-09-06 15:58:33
502,Saint-Leu,-21.15,55.28,69.8,83,40,5.82,RE,2020-09-06 15:58:33
503,Jefferson City,38.58,-92.17,82.4,65,20,12.28,US,2020-09-06 15:53:35
504,Ponta Delgada,37.73,-25.67,71.6,64,75,18.34,PT,2020-09-06 15:58:33
505,Champerico,14.3,-91.92,82.4,74,75,4.7,GT,2020-09-06 15:56:35
506,Akyab,20.15,92.9,83.14,75,100,4.12,MM,2020-09-06 15:58:34
507,Allapalli,19.42,80.07,80.02,86,100,2.15,IN,2020-09-06 15:58:34
508,Pasighat,28.07,95.33,76.23,84,100,2.21,IN,2020-09-06 15:58:34
509,Geraldton,-28.77,114.6,66.2,88,75,16.11,AU,2020-09-06 15:58:34
510,Verkhnyaya Inta,65.98,60.31,53.85,91,88,7.7,RU,2020-09-06 15:58:35
511,Ferme-Neuve,46.7,-75.45,62.26,55,27,5.14,CA,2020-09-06 15:58:35
512,Saint Anthony,45.02,-93.22,73.99,69,1,16.11,US,2020-09-06 15:58:35
513,Pundaguitan,6.37,126.17,84.38,69,1,6.87,PH,2020-09-06 15:58:35
514,Araguacu,-12.93,-49.83,99.23,17,0,6.71,BR,2020-09-06 15:58:36
515,Le Port,-20.94,55.29,71.6,68,20,13.87,RE,2020-09-06 15:58:36
516,Kiunga,-6.12,141.29,74.14,94,95,2.46,PG,2020-09-06 15:58:36
517,Meulaboh,4.14,96.13,77.22,81,100,4.74,ID,2020-09-06 15:56:04
518,Sinnamary,5.38,-52.95,84.2,78,0,8.99,GF,2020-09-06 15:58:36
519,San Borja,-14.82,-66.85,92.97,38,93,4.05,BO,2020-09-06 15:58:37
520,Nuristan,35.3,70.83,42.94,72,13,4.7,AF,2020-09-06 15:58:37
521,Harper,4.38,-7.72,77.13,81,90,11.56,LR,2020-09-06 15:55:56
522,Namatanai,-3.67,152.43,79.52,78,99,5.5,PG,2020-09-06 15:58:37
523,Muros,42.78,-9.06,70.0,56,0,13.87,ES,2020-09-06 15:57:31
524,Portland,45.52,-122.68,63.0,87,20,3.02,US,2020-09-06 15:54:48
525,Macon,39.87,-88.97,66.99,100,90,16.11,US,2020-09-06 15:58:38
526,Purpe,64.48,76.69,48.0,94,100,7.81,RU,2020-09-06 15:58:38
527,Mpwapwa,-6.35,36.48,70.05,54,9,9.75,TZ,2020-09-06 15:58:38
528,Shelburne,44.08,-80.2,64.99,59,20,4.7,CA,2020-09-06 15:58:38
529,Garoua,9.3,13.4,87.8,58,40,9.17,CM,2020-09-06 15:56:14
530,Lazo,43.38,133.9,62.55,69,78,1.9,RU,2020-09-06 15:58:39
531,Sechura,-5.56,-80.82,71.85,55,23,10.07,PE,2020-09-06 15:58:39
532,Ivanino,51.64,35.58,77.0,25,4,4.47,RU,2020-09-06 15:58:39
533,Khani,41.96,42.96,75.2,83,90,4.7,GE,2020-09-06 15:58:39
534,Taloqan,36.74,69.53,65.25,28,0,2.13,AF,2020-09-06 15:58:40
535,Kushmurun,52.45,64.63,54.25,68,96,6.69,KZ,2020-09-06 15:58:40
536,Los Alamos,35.89,-106.31,70.0,37,1,3.36,US,2020-09-06 15:53:13
537,Bartica,6.4,-58.62,87.8,66,40,4.7,GY,2020-09-06 15:58:40
538,San,13.3,-4.9,86.43,62,88,7.16,ML,2020-09-06 15:58:41
539,Buin,-33.73,-70.75,61.0,44,53,3.4,CL,2020-09-06 15:58:41
540,Miyako,39.64,141.95,72.64,90,6,6.76,JP,2020-09-06 15:58:41
541,Khandyga,62.67,135.6,51.37,97,100,4.41,RU,2020-09-06 15:56:14
542,Kalmunai,7.42,81.82,77.88,79,98,14.29,LK,2020-09-06 15:58:41
543,Rabo De Peixe,37.8,-25.58,71.6,64,75,18.34,PT,2020-09-06 15:58:43
544,Abha,18.22,42.51,82.4,14,20,10.29,SA,2020-09-06 15:56:48
545,Olafsvik,64.89,-23.71,50.9,97,100,10.92,IS,2020-09-06 15:58:44
546,Vila Velha,-20.33,-40.29,81.0,65,20,14.99,BR,2020-09-06 15:58:44
547,Huarmey,-10.07,-78.15,66.51,65,97,8.79,PE,2020-09-06 15:55:31
548,Sabha,27.04,14.43,100.76,11,0,11.59,LY,2020-09-06 15:58:45
549,Gamba,-2.65,10.0,76.77,75,33,10.85,GA,2020-09-06 15:56:44
550,Ouegoa,-20.35,164.43,70.36,79,98,12.3,NC,2020-09-06 15:58:47
551,Saquena,-4.67,-73.52,95.99,45,17,0.65,PE,2020-09-06 15:58:47
552,Newport,51.59,-3.0,64.99,87,77,6.35,GB,2020-09-06 15:58:47
553,Hanna,51.63,-111.9,51.01,94,100,5.99,CA,2020-09-06 15:58:47
554,College,64.86,-147.8,39.0,93,20,3.36,US,2020-09-06 15:55:40
555,Littlehampton,50.81,-0.54,66.99,72,20,12.75,GB,2020-09-06 15:58:48
556,Miri,4.41,114.01,78.8,94,40,3.36,MY,2020-09-06 15:58:48
557,Tiarei,-17.53,-149.33,71.6,83,40,3.36,PF,2020-09-06 15:58:48
558,Lazarev,52.23,141.51,61.59,85,0,13.33,RU,2020-09-06 15:58:48
559,Svetlyy,54.67,20.13,62.6,67,20,8.95,RU,2020-09-06 15:58:48
560,East Brunswick,40.43,-74.42,78.01,62,0,8.01,US,2020-09-06 15:58:49
561,Lasa,46.62,10.7,64.99,87,40,6.93,IT,2020-09-06 15:55:54
562,Raga,8.46,25.68,75.99,90,23,4.72,SS,2020-09-06 15:58:49
563,Tiznit,29.58,-9.5,86.5,37,0,6.67,MA,2020-09-06 15:58:49
564,Ketchikan,55.34,-131.65,55.4,100,90,4.7,US,2020-09-06 15:49:48
565,Puchezh,56.98,43.17,64.71,67,21,9.73,RU,2020-09-06 15:58:49
566,Maldonado,-34.67,-54.92,55.4,71,20,17.22,UY,2020-09-06 15:58:50
567,Shahpura,27.38,75.97,86.0,70,40,4.68,IN,2020-09-06 15:58:50
568,Zaraza,9.35,-65.32,86.5,70,4,4.36,VE,2020-09-06 15:58:50
569,Touba,8.28,-7.68,77.11,79,78,7.27,CI,2020-09-06 15:58:50
570,Lagos,6.58,3.75,79.97,72,63,10.25,NG,2020-09-06 15:55:09
571,Port-Cartier,50.03,-66.87,59.0,62,75,5.82,CA,2020-09-06 15:58:51
572,Mareeba,-17.0,145.43,71.6,83,75,10.29,AU,2020-09-06 15:58:51
573,Jeremoabo,-10.07,-38.48,85.96,37,60,12.93,BR,2020-09-06 15:58:51
574,West Wendover,40.74,-114.07,75.2,23,1,4.7,US,2020-09-06 15:57:24
575,Naze,28.37,129.48,80.6,88,75,24.16,JP,2020-09-06 15:56:31
576,Santa Isabel,-23.32,-46.22,84.2,28,0,8.05,BR,2020-09-06 15:58:52
577,Acari,-15.43,-74.62,73.72,36,38,9.31,PE,2020-09-06 15:58:52
578,Yar-Sale,66.83,70.83,42.33,66,0,5.1,RU,2020-09-06 15:56:42
579,Raudeberg,61.99,5.14,55.99,86,19,10.38,NO,2020-09-06 15:58:52
580,Chaplynka,46.37,33.54,75.31,65,67,8.08,UA,2020-09-06 15:58:52
581,Sergeyevka,53.88,67.42,48.94,69,98,7.31,KZ,2020-09-06 15:55:23
582,Jasper,37.2,-94.35,82.99,74,1,13.87,US,2020-09-06 15:58:53
583,Mutoko,-17.4,32.23,62.33,43,0,9.37,ZW,2020-09-06 15:58:53
584,Prado,-17.34,-39.22,78.13,73,10,10.85,BR,2020-09-06 15:58:53
585,Ewa Beach,21.32,-158.01,78.8,73,1,3.36,US,2020-09-06 15:58:54
586,Bondo,3.81,23.69,73.99,95,97,1.99,CD,2020-09-06 15:58:54
587,Diapaga,12.07,1.79,79.57,77,56,6.8,BF,2020-09-06 15:57:01
588,Talnakh,69.49,88.4,46.4,70,0,8.95,RU,2020-09-06 15:55:33
589,Tamale,9.4,-0.84,79.29,83,96,7.36,GH,2020-09-06 15:58:55
590,Marzuq,14.4,46.47,81.1,52,37,9.35,YE,2020-09-06 15:58:55
591,Buraydah,26.33,43.98,104.0,15,0,10.29,SA,2020-09-06 15:58:55
592,Wawa,9.9,4.42,77.94,87,69,4.68,NG,2020-09-06 15:58:55
593,Saint-Augustin,51.23,-58.65,64.92,52,5,16.37,CA,2020-09-06 15:56:00
594,Port Hardy,50.7,-127.42,57.2,93,75,2.24,CA,2020-09-06 15:58:56
595,Nizwa,22.93,57.53,93.36,23,0,7.47,OM,2020-09-06 15:56:05
596,Santa Fe Do Sul,-20.21,-50.93,95.0,15,71,8.5,BR,2020-09-06 15:58:56
597,Ust-Kan,50.93,84.76,38.17,85,94,1.86,RU,2020-09-06 15:58:56
598,Qasigiannguit,68.82,-51.19,35.6,93,90,6.93,GL,2020-09-06 15:58:56
599,Kapit,2.02,112.93,73.87,94,100,1.86,MY,2020-09-06 15:58:56
600,Nova Olinda Do Norte,-3.89,-59.09,103.71,20,45,4.23,BR,2020-09-06 15:58:57
601,Bonthe,7.53,-12.51,78.66,84,100,12.28,SL,2020-09-06 15:55:57
602,Kurilsk,45.23,147.88,65.88,92,75,8.08,RU,2020-09-06 15:58:57
603,Dumas,35.87,-101.97,80.01,47,1,20.8,US,2020-09-06 15:58:57
604,Kizukuri,40.81,140.39,73.99,92,12,3.67,JP,2020-09-06 15:58:57
605,Izumo,35.37,132.77,84.2,66,75,17.22,JP,2020-09-06 15:58:58
606,Bellavista,-7.06,-76.59,80.6,74,40,3.36,PE,2020-09-06 15:58:58
607,Horsham,51.06,-0.33,66.99,55,67,8.05,GB,2020-09-06 15:58:58
608,Rio Gallegos,-51.62,-69.22,42.8,60,75,8.05,AR,2020-09-06 15:58:58
609,Phuket,8.0,98.25,84.99,94,20,3.15,TH,2020-09-06 15:58:58
610,San Cristobal,7.77,-72.22,87.8,52,40,13.87,VE,2020-09-06 15:56:16
611,Te Anau,-45.42,167.72,34.83,88,10,1.66,NZ,2020-09-06 15:54:23
612,Jiazi,22.88,116.07,80.33,78,0,4.76,CN,2020-09-06 15:58:59
613,Delvada,20.77,71.03,82.08,84,100,7.56,IN,2020-09-06 15:58:59
614,Darhan,49.49,105.92,48.25,87,0,1.19,MN,2020-09-06 15:58:59
615,Talaya,61.38,152.75,44.31,82,99,5.99,RU,2020-09-06 15:58:59
616,Paamiut,61.99,-49.67,44.96,90,100,4.85,GL,2020-09-06 15:59:00
617,Guntur,16.3,80.45,84.2,83,20,4.7,IN,2020-09-06 15:59:00
618,Jiaozuo,35.24,113.23,77.22,47,0,2.71,CN,2020-09-06 15:59:00
619,Narsingi,18.03,78.43,84.2,70,40,4.7,IN,2020-09-06 15:59:00
620,Tecpan,14.76,-90.99,69.8,77,40,9.17,GT,2020-09-06 15:59:01
621,Svodin,47.91,18.5,75.0,70,85,8.01,SK,2020-09-06 15:59:01
622,Ganta,7.3,-8.53,74.93,92,80,4.85,LR,2020-09-06 15:59:01
623,Natal,-5.79,-35.21,86.0,51,40,20.8,BR,2020-09-06 15:59:01
624,Chake Chake,-5.25,39.77,74.84,77,3,9.73,TZ,2020-09-06 15:59:01
625,George,-33.96,22.46,59.0,87,75,9.17,ZA,2020-09-06 15:55:20
626,Jinja,0.44,33.2,71.24,72,52,0.63,UG,2020-09-06 15:59:02
627,Maroantsetra,-15.43,49.73,69.04,81,7,8.81,MG,2020-09-06 15:59:02
628,Slave Lake,55.28,-114.77,50.0,76,75,8.05,CA,2020-09-06 15:59:02
629,Sistranda,63.73,8.83,57.2,71,40,11.41,NO,2020-09-06 15:59:02
630,Ambilobe,-13.2,49.05,73.6,69,84,1.05,MG,2020-09-06 15:56:35
631,Athabasca,54.72,-113.29,47.34,84,100,10.4,CA,2020-09-06 15:54:14
632,Salinopolis,-0.61,-47.36,84.16,71,18,15.01,BR,2020-09-06 15:59:03
633,Santa Vitoria Do Palmar,-33.52,-53.37,58.71,66,0,12.41,BR,2020-09-06 15:59:03
634,Pullman,46.73,-117.18,68.0,39,1,4.7,US,2020-09-06 15:54:35
635,Ferkessedougou,9.6,-5.2,80.87,74,24,7.87,CI,2020-09-06 15:59:03
636,Zyryanka,65.75,150.85,49.59,95,100,11.9,RU,2020-09-06 15:59:03
637,Nyaunglebin,17.95,96.73,77.92,93,99,5.46,MM,2020-09-06 15:59:04
638,Hermagor,46.63,13.37,71.6,68,75,2.24,AT,2020-09-06 15:57:18
639,Vallenar,-28.57,-70.76,74.64,19,71,6.49,CL,2020-09-06 15:59:04
640,Akcaabat,41.02,39.57,71.6,88,75,5.82,TR,2020-09-06 15:59:04
641,Asyut,27.18,31.18,98.6,30,0,20.8,EG,2020-09-06 15:59:04
642,Payo,-3.75,103.64,77.32,75,98,2.51,ID,2020-09-06 15:59:04
643,Nuoro,40.32,9.33,84.2,66,5,3.36,IT,2020-09-06 15:59:05
644,Corner Brook,48.97,-57.95,69.8,56,40,16.11,CA,2020-09-06 15:59:05
645,Sfantu Gheorghe,45.87,25.78,75.0,46,0,1.66,RO,2020-09-06 15:55:34
646,Mackay,-21.15,149.2,69.8,77,75,12.75,AU,2020-09-06 15:59:05
647,Srednekolymsk,67.45,153.68,51.1,64,100,2.1,RU,2020-09-06 15:59:05
648,Zelenogorskiy,55.03,87.0,46.4,75,49,4.47,RU,2020-09-06 15:59:06
649,Tazmalt,36.39,4.4,80.6,61,20,5.82,DZ,2020-09-06 15:59:06
650,Karpathos,35.51,27.21,78.8,61,0,24.16,GR,2020-09-06 15:59:06
651,Christchurch,-43.53,172.63,48.0,87,23,9.17,NZ,2020-09-06 15:59:06
652,Abu Samrah,35.3,37.18,89.01,20,0,9.82,SY,2020-09-06 15:59:06
653,Tahoua,14.89,5.27,84.2,62,20,4.7,NE,2020-09-06 15:59:07
654,Roma,43.21,-75.46,66.99,63,20,3.36,US,2020-09-06 15:58:04
655,Edgewater,28.99,-80.9,90.0,70,75,8.05,US,2020-09-06 15:59:07
656,Imeni Poliny Osipenko,52.42,136.49,55.47,97,68,7.05,RU,2020-09-06 15:59:07
657,Yeryeri,35.13,24.95,82.0,49,0,10.0,GR,2020-09-06 15:59:07
658,Zuwarah,32.93,12.08,87.58,43,66,25.05,LY,2020-09-06 15:59:08
659,Ixtapa,20.7,-105.2,80.01,88,90,3.58,MX,2020-09-06 15:59:08
660,Kanigoro,-8.13,112.22,73.09,90,79,4.21,ID,2020-09-06 15:59:08
661,Murray Bridge,-35.12,139.27,64.0,38,0,12.37,AU,2020-09-06 15:59:09
662,Salinas,36.68,-121.66,71.6,56,1,1.59,US,2020-09-06 15:54:22
663,Grenaa,56.42,10.88,62.6,51,6,16.11,DK,2020-09-06 15:59:09
664,Pelym,61.01,62.0,50.63,81,0,3.11,RU,2020-09-06 15:59:10
665,San Clemente,33.43,-117.61,95.0,53,1,2.24,US,2020-09-06 15:55:27
666,Lavrentiya,65.58,-171.0,38.7,85,100,7.49,RU,2020-09-06 15:56:37
667,Mutare,-18.97,32.67,60.87,52,0,7.65,ZW,2020-09-06 15:59:10
668,El Tigre,8.89,-64.25,86.68,61,1,8.12,VE,2020-09-06 15:57:44
669,Lahad Datu,5.03,118.33,76.59,90,92,3.71,MY,2020-09-06 15:59:10
670,Chowchilla,37.12,-120.26,73.4,73,1,3.53,US,2020-09-06 15:59:11
671,Nueva Concepcion,14.2,-91.3,86.0,74,75,4.7,GT,2020-09-06 15:59:11
672,Tombouctou,20.0,-3.0,103.89,14,0,3.94,ML,2020-09-06 15:59:11
673,Verkhoyansk,67.54,133.38,47.5,76,100,6.6,RU,2020-09-06 15:59:11
674,Zig,40.13,-92.77,81.0,78,1,14.99,US,2020-09-06 15:59:11
675,Albuquerque,35.08,-106.65,77.0,38,5,1.99,US,2020-09-06 15:55:01
676,Luwingu,-10.26,29.93,73.35,21,91,6.76,ZM,2020-09-06 15:59:12
677,Yanai,33.97,132.12,82.4,74,75,21.92,JP,2020-09-06 15:59:12
678,Aranos,-24.13,19.12,84.56,15,25,5.91,NA,2020-09-06 15:59:12
679,Katherine,-14.47,132.27,80.6,26,5,10.29,AU,2020-09-06 15:59:13
680,Sirnak,37.52,42.46,77.32,18,1,5.48,TR,2020-09-06 15:59:13
681,Turbat,26.0,63.04,90.39,46,0,13.69,PK,2020-09-06 15:59:13
682,Kilindoni,-7.91,39.67,76.24,77,0,16.42,TZ,2020-09-06 15:59:13
683,Nivala,63.92,24.97,55.94,86,100,4.72,FI,2020-09-06 15:59:13
684,Ardakan,32.31,54.02,87.8,10,0,4.7,IR,2020-09-06 15:59:14
685,Srandakan,-7.94,110.25,76.87,83,100,5.48,ID,2020-09-06 15:58:38
686,Codo,-4.46,-43.89,96.71,25,6,5.48,BR,2020-09-06 15:59:14
687,Blanquefort,44.91,-0.64,71.6,40,33,14.99,FR,2020-09-06 15:59:14
688,Sobolevo,54.43,31.9,65.68,83,100,6.02,RU,2020-09-06 15:59:14
689,Shingu,33.73,135.98,79.09,89,100,17.31,JP,2020-09-06 15:59:14
690,Simdega,22.62,84.52,79.36,82,100,0.4,IN,2020-09-06 15:59:15
691,Assiniboia,49.63,-105.98,57.42,60,100,18.12,CA,2020-09-06 15:59:15
692,Port Moresby,-9.44,147.18,78.8,83,40,16.11,PG,2020-09-06 15:56:57
693,Charyshskoye,51.4,83.56,45.07,82,100,0.6,RU,2020-09-06 15:59:15
694,Griffith,41.53,-87.42,59.0,100,90,16.11,US,2020-09-06 15:57:42
